{
"type": "FeatureCollection",
"name": "hotel",
"crs": { "type": "name", "properties": { "name": "urn:ogc:def:crs:OGC:1.3:CRS84" } },
"features": [
{ "type": "Feature", "properties": { "id": "node/360182751", "name": "Исеть" }, "geometry": { "type": "Point", "coordinates": [ 60.6212496, 56.840796 ] } },
{ "type": "Feature", "properties": { "id": "node/453233968", "name": "УралОтель" }, "geometry": { "type": "Point", "coordinates": [ 60.5719111, 56.8413886 ] } },
{ "type": "Feature", "properties": { "id": "node/453233970", "name": "Сенатор" }, "geometry": { "type": "Point", "coordinates": [ 60.576362, 56.8416494 ] } },
{ "type": "Feature", "properties": { "id": "node/454797741", "name": "Визави" }, "geometry": { "type": "Point", "coordinates": [ 60.5480856, 56.8376231 ] } },
{ "type": "Feature", "properties": { "id": "node/454797750", "name": "Визави" }, "geometry": { "type": "Point", "coordinates": [ 60.5586383, 56.8328543 ] } },
{ "type": "Feature", "properties": { "id": "node/457304365", "name": "Hyatt Regency Ekaterinburg" }, "geometry": { "type": "Point", "coordinates": [ 60.591809, 56.8427692 ] } },
{ "type": "Feature", "properties": { "id": "node/459806447", "name": "Маринс Парк Отель, ул. Челюскинцев, 106" }, "geometry": { "type": "Point", "coordinates": [ 60.6056082, 56.8558366 ] } },
{ "type": "Feature", "properties": { "id": "node/470133258", "name": "Park Inn" }, "geometry": { "type": "Point", "coordinates": [ 60.6184097, 56.8365654 ] } },
{ "type": "Feature", "properties": { "id": "node/474946083", "name": "Екатеринбург-Центральный" }, "geometry": { "type": "Point", "coordinates": [ 60.6131475, 56.8350432 ] } },
{ "type": "Feature", "properties": { "id": "node/474946206", "name": "Атриум Палас Отель" }, "geometry": { "type": "Point", "coordinates": [ 60.616055, 56.8275405 ] } },
{ "type": "Feature", "properties": { "id": "node/475949973", "name": "Suite" }, "geometry": { "type": "Point", "coordinates": [ 60.6413833, 56.8417598 ] } },
{ "type": "Feature", "properties": { "id": "node/477362324", "name": "Гранд-Авеню Отель" }, "geometry": { "type": "Point", "coordinates": [ 60.612752, 56.8390118 ] } },
{ "type": "Feature", "properties": { "id": "node/477362547", "name": "Премьер-отель" }, "geometry": { "type": "Point", "coordinates": [ 60.6173146, 56.8344069 ] } },
{ "type": "Feature", "properties": { "id": "node/477363007", "name": "Трансагентство" }, "geometry": { "type": "Point", "coordinates": [ 60.6323241, 56.8379256 ] } },
{ "type": "Feature", "properties": { "id": "node/477363008", "name": "Вознесенский отель" }, "geometry": { "type": "Point", "coordinates": [ 60.6154778, 56.8450858 ] } },
{ "type": "Feature", "properties": { "id": "node/527294615", "name": "Атлаза Сити Резиденс" }, "geometry": { "type": "Point", "coordinates": [ 60.6380027, 56.8236858 ] } },
{ "type": "Feature", "properties": { "id": "node/538132088", "name": "Angelo" }, "geometry": { "type": "Point", "coordinates": [ 60.7988998, 56.7509031 ] } },
{ "type": "Feature", "properties": { "id": "node/561044847", "name": "Лайнер" }, "geometry": { "type": "Point", "coordinates": [ 60.8084627, 56.751 ] } },
{ "type": "Feature", "properties": { "id": "node/601471836", "name": "Парус" }, "geometry": { "type": "Point", "coordinates": [ 60.5909119, 56.8132031 ] } },
{ "type": "Feature", "properties": { "id": "node/622506714", "name": "Форт" }, "geometry": { "type": "Point", "coordinates": [ 60.6264725, 56.8579802 ] } },
{ "type": "Feature", "properties": { "id": "node/638259522", "name": "Ramada" }, "geometry": { "type": "Point", "coordinates": [ 60.7172823, 56.775525 ] } },
{ "type": "Feature", "properties": { "id": "node/662689998", "name": "Атлантик" }, "geometry": { "type": "Point", "coordinates": [ 60.6470916, 56.790848 ] } },
{ "type": "Feature", "properties": { "id": "node/686824807", "name": "Онегин" }, "geometry": { "type": "Point", "coordinates": [ 60.6144034, 56.8295923 ] } },
{ "type": "Feature", "properties": { "id": "node/703132113", "name": "Веста" }, "geometry": { "type": "Point", "coordinates": [ 60.6426878, 56.8455459 ] } },
{ "type": "Feature", "properties": { "id": "node/858399143", "name": "Малахит 2000" }, "geometry": { "type": "Point", "coordinates": [ 60.6403002, 56.8303581 ] } },
{ "type": "Feature", "properties": { "id": "node/892259849", "name": "Ричмонд" }, "geometry": { "type": "Point", "coordinates": [ 60.6555763, 56.8404228 ] } },
{ "type": "Feature", "properties": { "id": "node/1070606642", "name": "Общежитие ЕЭТК" }, "geometry": { "type": "Point", "coordinates": [ 60.6155153, 56.8947558 ] } },
{ "type": "Feature", "properties": { "id": "node/3117987903", "name": "Лайт" }, "geometry": { "type": "Point", "coordinates": [ 60.6223901, 56.8088164 ] } },
{ "type": "Feature", "properties": { "id": "node/1304384636", "name": "AVS Отель" }, "geometry": { "type": "Point", "coordinates": [ 60.5687804, 56.9050105 ] } },
{ "type": "Feature", "properties": { "id": "node/1322252358", "name": "Грин парк" }, "geometry": { "type": "Point", "coordinates": [ 60.5995542, 56.8241168 ] } },
{ "type": "Feature", "properties": { "id": "node/1333117834", "name": "Чеховъ" }, "geometry": { "type": "Point", "coordinates": [ 60.6009393, 56.8301225 ] } },
{ "type": "Feature", "properties": { "id": "node/1333309258", "name": "Эмеральд" }, "geometry": { "type": "Point", "coordinates": [ 60.5871795, 56.8376177 ] } },
{ "type": "Feature", "properties": { "id": "node/1333309260", "name": "Евротель" }, "geometry": { "type": "Point", "coordinates": [ 60.5884669, 56.8285793 ] } },
{ "type": "Feature", "properties": { "id": "node/1333309261", "name": "Золотой лев" }, "geometry": { "type": "Point", "coordinates": [ 60.5992488, 56.8480107 ] } },
{ "type": "Feature", "properties": { "id": "node/1412088788", "name": "Де Пари" }, "geometry": { "type": "Point", "coordinates": [ 60.6714349, 56.8643291 ] } },
{ "type": "Feature", "properties": { "id": "node/1442046141", "name": "Верона" }, "geometry": { "type": "Point", "coordinates": [ 60.5984254, 56.8157683 ] } },
{ "type": "Feature", "properties": { "id": "node/1451513437", "name": "Урал" }, "geometry": { "type": "Point", "coordinates": [ 60.6298438, 56.8402255 ] } },
{ "type": "Feature", "properties": { "id": "node/1479373387", "name": "ДИВС" }, "geometry": { "type": "Point", "coordinates": [ 60.5958441, 56.847034 ] } },
{ "type": "Feature", "properties": { "id": "node/1545242650", "name": "Мегалайт" }, "geometry": { "type": "Point", "coordinates": [ 60.6332064, 56.8007886 ] } },
{ "type": "Feature", "properties": { "id": "node/1746588148", "name": "Сити Отель" }, "geometry": { "type": "Point", "coordinates": [ 60.5347127, 56.8098549 ] } },
{ "type": "Feature", "properties": { "id": "node/1989774319", "name": "4 Сезона" }, "geometry": { "type": "Point", "coordinates": [ 60.5903574, 56.8283796 ] } },
{ "type": "Feature", "properties": { "id": "node/1991879281", "name": "Октябрьская" }, "geometry": { "type": "Point", "coordinates": [ 60.6527063, 56.8498593 ] } },
{ "type": "Feature", "properties": { "id": "node/2051366712", "name": "Галант" }, "geometry": { "type": "Point", "coordinates": [ 60.5922247, 56.8873124 ] } },
{ "type": "Feature", "properties": { "id": "node/2285469672", "name": "Изумруд" }, "geometry": { "type": "Point", "coordinates": [ 60.5159678, 56.8189984 ] } },
{ "type": "Feature", "properties": { "id": "node/3117988072", "name": "Екатеринбург ЕА" }, "geometry": { "type": "Point", "coordinates": [ 60.6207274, 56.8090895 ] } },
{ "type": "Feature", "properties": { "id": "node/2623409588", "name": "Лайт" }, "geometry": { "type": "Point", "coordinates": [ 60.5647472, 56.8331004 ] } },
{ "type": "Feature", "properties": { "id": "node/2653860041", "name": "Panorama" }, "geometry": { "type": "Point", "coordinates": [ 60.6163295, 56.826641 ] } },
{ "type": "Feature", "properties": { "id": "node/2861308273", "name": "На Донбасской" }, "geometry": { "type": "Point", "coordinates": [ 60.5583201, 56.8806906 ] } },
{ "type": "Feature", "properties": { "id": "node/2999164966", "name": "Александровский Парк-Отель" }, "geometry": { "type": "Point", "coordinates": [ 60.6325206, 56.8112191 ] } },
{ "type": "Feature", "properties": { "id": "node/2999164967", "name": "ТрансОтель" }, "geometry": { "type": "Point", "coordinates": [ 60.6113606, 56.8336083 ] } },
{ "type": "Feature", "properties": { "id": "node/3103304929", "name": "Татьяна" }, "geometry": { "type": "Point", "coordinates": [ 60.592927, 56.8906707 ] } },
{ "type": "Feature", "properties": { "id": "node/3168091103", "name": "Отель Атлас" }, "geometry": { "type": "Point", "coordinates": [ 60.5913536, 56.8289648 ] } },
{ "type": "Feature", "properties": { "id": "node/3184295135", "name": "Амиго" }, "geometry": { "type": "Point", "coordinates": [ 60.6232684, 56.8559397 ] } },
{ "type": "Feature", "properties": { "id": "node/3208448184", "name": "Высоцкий" }, "geometry": { "type": "Point", "coordinates": [ 60.6144835, 56.8359579 ] } },
{ "type": "Feature", "properties": { "id": "node/3279101492", "name": "Протекс-Отель" }, "geometry": { "type": "Point", "coordinates": [ 60.6045013, 56.8218857 ] } },
{ "type": "Feature", "properties": { "id": "node/3763585499", "name": "Аквитания" }, "geometry": { "type": "Point", "coordinates": [ 60.5658751, 56.8337816 ] } },
{ "type": "Feature", "properties": { "id": "node/3774516425", "name": "Парк Виста" }, "geometry": { "type": "Point", "coordinates": [ 60.6407684, 56.8197638 ] } },
{ "type": "Feature", "properties": { "id": "node/3973102556", "name": "Карамель" }, "geometry": { "type": "Point", "coordinates": [ 60.6320693, 56.8359061 ] } },
{ "type": "Feature", "properties": { "id": "node/3359168199", "name": "Комфорт" }, "geometry": { "type": "Point", "coordinates": [ 60.6345192, 56.8407886 ] } },
{ "type": "Feature", "properties": { "id": "node/4199876289", "name": "Репина 78" }, "geometry": { "type": "Point", "coordinates": [ 60.5449286, 56.8197973 ] } },
{ "type": "Feature", "properties": { "id": "node/4271538690", "name": "КОР" }, "geometry": { "type": "Point", "coordinates": [ 60.6950466, 56.8432473 ] } },
{ "type": "Feature", "properties": { "id": "node/4384105354", "name": "Гостиница-санаторий Мельковский" }, "geometry": { "type": "Point", "coordinates": [ 60.5909726, 56.8507289 ] } },
{ "type": "Feature", "properties": { "id": "node/4448938195", "name": "Арбат" }, "geometry": { "type": "Point", "coordinates": [ 60.5959824, 56.8340114 ] } },
{ "type": "Feature", "properties": { "id": "node/4528243889", "name": "Усадьба «Орехово»" }, "geometry": { "type": "Point", "coordinates": [ 60.5250174, 56.7829521 ] } },
{ "type": "Feature", "properties": { "id": "node/4566445811", "name": "Renomme" }, "geometry": { "type": "Point", "coordinates": [ 60.6017077, 56.827557 ] } },
{ "type": "Feature", "properties": { "id": "node/4591195090", "name": "Four elements Ekaterinburg" }, "geometry": { "type": "Point", "coordinates": [ 60.5864205, 56.837112 ] } },
{ "type": "Feature", "properties": { "id": "node/5057606078", "name": "Tenet" }, "geometry": { "type": "Point", "coordinates": [ 60.5920602, 56.8366419 ] } },
{ "type": "Feature", "properties": { "id": "node/5144553660", "name": "Созвездие" }, "geometry": { "type": "Point", "coordinates": [ 60.6087291, 56.8094989 ] } },
{ "type": "Feature", "properties": { "id": "node/5245843385", "name": "Аист" }, "geometry": { "type": "Point", "coordinates": [ 60.6703985, 56.787072 ] } },
{ "type": "Feature", "properties": { "id": "node/5364530334", "name": "Гостиница на Тракте" }, "geometry": { "type": "Point", "coordinates": [ 60.7437692, 56.7056994 ] } },
{ "type": "Feature", "properties": { "id": "node/6171134202", "name": "Авиатор" }, "geometry": { "type": "Point", "coordinates": [ 60.5974504, 56.8330322 ] } },
{ "type": "Feature", "properties": { "id": "node/6512902585", "name": "Pastel" }, "geometry": { "type": "Point", "coordinates": [ 60.6325295, 56.827194 ] } },
{ "type": "Feature", "properties": { "id": "node/7997647929", "name": "Зима" }, "geometry": { "type": "Point", "coordinates": [ 60.6083121, 56.817732 ] } },
{ "type": "Feature", "properties": { "id": "node/8333606917", "name": "ОТЕЛЬ СОН lite" }, "geometry": { "type": "Point", "coordinates": [ 60.6033788, 56.8168557 ] } },
{ "type": "Feature", "properties": { "id": "node/8412588424", "name": "Империя отдыха" }, "geometry": { "type": "Point", "coordinates": [ 60.5647288, 56.8050351 ] } },
{ "type": "Feature", "properties": { "id": "node/8635410366", "name": "Успенский двор" }, "geometry": { "type": "Point", "coordinates": [ 60.6157833, 56.8297877 ] } },
{ "type": "Feature", "properties": { "id": "node/9329362149", "name": "Московская горка" }, "geometry": { "type": "Point", "coordinates": [ 60.5882863, 56.8229359 ] } },
{ "type": "Feature", "properties": { "id": "node/9562125750", "name": "SensaRoom" }, "geometry": { "type": "Point", "coordinates": [ 60.6102553, 56.8285528 ] } },
{ "type": "Feature", "properties": { "id": "node/9914465819", "name": "Hotel Centre" }, "geometry": { "type": "Point", "coordinates": [ 60.6083186, 56.8326466 ] } },
{ "type": "Feature", "properties": { "id": "node/10603596287", "name": "Sonya family" }, "geometry": { "type": "Point", "coordinates": [ 60.7216287, 56.8022764 ] } },
{ "type": "Feature", "properties": { "id": "node/10603596316", "name": "Grand Hall" }, "geometry": { "type": "Point", "coordinates": [ 60.6461031, 56.8343074 ] } },
{ "type": "Feature", "properties": { "id": "node/4307075167", "name": "Eightrays" }, "geometry": { "type": "Point", "coordinates": [ 60.6181431, 56.849158 ] } },
{ "type": "Feature", "properties": { "id": "node/4443287822", "name": "Arthostels" }, "geometry": { "type": "Point", "coordinates": [ 60.5969918, 56.8343778 ] } },
{ "type": "Feature", "properties": { "id": "node/4545779993", "name": "Аврора" }, "geometry": { "type": "Point", "coordinates": [ 60.6436438, 56.842491 ] } },
{ "type": "Feature", "properties": { "id": "node/5041771721", "name": "Дом" }, "geometry": { "type": "Point", "coordinates": [ 60.5400001, 56.868011 ] } },
{ "type": "Feature", "properties": { "id": "node/6254258268", "name": "ЛаKшеРи project" }, "geometry": { "type": "Point", "coordinates": [ 60.6196605, 56.8297107 ] } },
{ "type": "Feature", "properties": { "id": "node/7152232414", "name": "Летучий олень" }, "geometry": { "type": "Point", "coordinates": [ 60.5897188, 56.8335688 ] } },
{ "type": "Feature", "properties": { "id": "node/7372054543", "name": "Red Star" }, "geometry": { "type": "Point", "coordinates": [ 60.6092736, 56.8298171 ] } },
{ "type": "Feature", "properties": { "id": "node/9394484817", "name": "Героев России" }, "geometry": { "type": "Point", "coordinates": [ 60.5784416, 56.8550224 ] } },
{ "type": "Feature", "properties": { "id": "node/9898837417", "name": "ВПЕЧАТЛЕНИЯ" }, "geometry": { "type": "Point", "coordinates": [ 60.614492, 56.84021 ] } },
{ "type": "Feature", "properties": { "id": "node/1081735793", "name": "Домашний отель" }, "geometry": { "type": "Point", "coordinates": [ 60.5897201, 56.8012389 ] } }
]
}
